station_name,latitude,longitude
2112 W Peterson Ave,41.97207991666667,-87.71502366666667
351,41.93,-87.78
63rd St Beach,41.778328583333334,-87.57403316666667
900 W Harrison St,41.855536083333334,-87.62854575
Aberdeen St & Jackson Blvd,41.87253816666667,-87.65574983333335
Aberdeen St & Monroe St,41.87351875,-87.66485408333332
Aberdeen St & Randolph St,41.864328416666666,-87.645427
Ada St & 113th St,41.688762749999995,-87.64767499999999
Ada St & Washington Blvd,41.866654,-87.66107274999999
Adler Planetarium,41.838368333333335,-87.59856758333333
Albany Ave & 26th St,41.8444545,-87.70216208333332
Albany Ave & Belmont Ave,41.94,-87.705
Albany Ave & Bloomingdale Ave,41.9016745,-87.66993733333334
Albany Ave & Montrose Ave,41.959309499999996,-87.70382216666667
Altgeld Gardens,41.656855014836864,-87.59885791292318
Archer (Damen) Ave & 37th St,41.82512141666666,-87.68642433333333
Archer Ave & 43rd St,41.82,-87.7
Artesian Ave & 55th St,41.79,-87.69
Artesian Ave & Hubbard St,41.87931616666666,-87.68605625000001
Ashland Ave & 13th St,41.85730616666667,-87.66376641666668
Ashland Ave & 50th St,41.80298116666666,-87.66468491666666
Ashland Ave & 63rd St,41.779314,-87.66495708333332
Ashland Ave & 66th St,41.77402991666666,-87.66376791666667
Ashland Ave & 74th St,41.75807666666667,-87.66347766666667
Ashland Ave & 78th St,41.752203583333326,-87.66380875
Ashland Ave & Archer Ave,41.83843025,-87.66556341666666
Ashland Ave & Augusta Blvd,41.88352741666667,-87.67224725
Ashland Ave & Belle Plaine Ave,41.95562483333333,-87.66894075
Ashland Ave & Blackhawk St,41.88712258333334,-87.6541535
Ashland Ave & Chicago Ave,41.88744441666667,-87.66713583333333
Ashland Ave & Division St,41.880580083333335,-87.66794508333334
Ashland Ave & Garfield Blvd,41.792809500000004,-87.66435075
Ashland Ave & Grace St,41.9220745,-87.672774
Ashland Ave & Grand Ave,41.88370258333333,-87.66940575000001
Ashland Ave & Lake St,41.88558716666666,-87.66798383333332
Ashland Ave & McDowell Ave,41.808782916666665,-87.66474541666668
Ashland Ave & Pershing Rd,41.823394416666666,-87.6655585
Ashland Ave & Wellington Ave,41.91078533333334,-87.64949058333335
Ashland Ave & Wrightwood Ave,41.910154750000004,-87.64823791666666
Augusta Blvd & Laramie Ave,41.9,-87.755
Austin Blvd & Chicago Ave,41.89470241666666,-87.77459491666667
Austin Blvd & Lake St,41.88755991666667,-87.76384308333334
Austin Blvd & Madison St,41.880195083333334,-87.7745315
Avenue L & 114th St,41.69,-87.54
Avenue O & 118th St,41.68099616666666,-87.53797783333333
Avenue O & 134th St,41.65186780228521,-87.53967136144637
Avers Ave & Belmont Ave,41.93684075,-87.71968358333334
Avondale Ave & Irving Park Rd,41.94146116666667,-87.72514625
Baltimore Ave & 87th St,41.737290333333334,-87.54845425
Base - 2132 W Hubbard Warehouse,41.873531416666665,-87.67314258333334
Bennett Ave & 79th St,41.75177975,-87.57858999999999
Benson Ave & Church St,42.0167485,-87.69131366666667
Bernard St & Elston Ave,41.939513833333336,-87.69857341666668
Big Marsh Park,41.68567508333333,-87.57280633333333
Bissell St & Armitage Ave,41.89844958333333,-87.63656866666668
Blackstone Ave & Hyde Park Blvd,41.796059416666665,-87.59456800000001
Bloomingdale Ave & Harlem Ave,41.91,-87.81
Blue Island Ave & 18th St,41.834508916666664,-87.6251695
Bosworth Ave & Howard St,42.017807749999996,-87.66993241666665
Bradley Park,41.71661925,-87.56629716666666
Broadway & Argyle St,41.962039000000004,-87.67266175
Broadway & Barry Ave,41.91484616666666,-87.62789624999999
Broadway & Belmont Ave,41.91297125,-87.63089508333334
Broadway & Berwyn Ave,41.966894499999995,-87.65204041666667
Broadway & Cornelia Ave,41.91691283333333,-87.649329
Broadway & Granville Ave,41.975457500000005,-87.6524375
Broadway & Ridge Ave,41.95523849999999,-87.65057208333333
Broadway & Sheridan Rd,41.930084416666666,-87.64084066666666
Broadway & Thorndale Ave,41.96774058333334,-87.67534733333332
Broadway & Waveland Ave,41.91881033333334,-87.64803908333333
Broadway & Wilson - Truman College Vaccination Site,41.95580666666667,-87.65389458333334
Broadway & Wilson Ave,41.965072164999995,-87.658284665
Buckingham Fountain,41.84755491666667,-87.67410833333334
Budlong Woods Library,41.98329185443,-87.69546103055
Burling St & Diversey Pkwy,41.91662866666667,-87.64031075
Burnham Greenway & 105th St,41.704538628333324,-87.52833820333333
Burnham Harbor,41.8155115,-87.59074558333333
California Ave & 21st St,41.84579283333333,-87.67349016666667
California Ave & 23rd Pl,41.848693499999996,-87.69507108333333
California Ave & 26th St,41.844003666666666,-87.69529783333333
California Ave & 29th St,41.84,-87.69
California Ave & 36th St,41.83,-87.685
California Ave & Altgeld St,41.91048083333333,-87.66089
California Ave & Byron St,41.936051166666665,-87.67511358333334
California Ave & Cortez St,41.89088475,-87.68654491666666
California Ave & Division St,41.895604000000006,-87.67487075
California Ave & Fletcher St,41.91410466666667,-87.67151941666665
California Ave & Francis Pl (Temp),41.887982916666665,-87.68666241666666
California Ave & Lake St,41.87508066666666,-87.70647124999999
California Ave & Marquette Rd,41.77,-87.66
California Ave & Milwaukee Ave,41.9058775,-87.675618
California Ave & Montrose Ave,41.92482566666666,-87.69839983333333
California Ave & North Ave,41.89775733333333,-87.68678491666667
California Ave & Winona St,41.97,-87.7
Calumet Ave & 18th St,41.82873466666666,-87.60028566666666
Calumet Ave & 21st St,41.833491583333334,-87.60462541666666
Calumet Ave & 33rd St,41.82148741666666,-87.60207033333333
Calumet Ave & 35th St,41.82064683333333,-87.60276608333334
Calumet Ave & 51st St,41.80221090877333,-87.6180237901
Calumet Ave & 71st St,41.765452669571665,-87.61693062916666
Calumet Park,41.713473750000006,-87.52925333333333
Campbell Ave & 51st St,41.8,-87.67
Campbell Ave & Fullerton Ave,41.92333491666667,-87.68930041666667
Campbell Ave & Montrose Ave,41.92816741666667,-87.67771325000001
Campbell Ave & North Ave,41.90814975,-87.69130816666666
Canal St & Adams St,41.875215999999995,-87.64490325
Canal St & Harrison St,41.86032158333333,-87.62458883333333
Canal St & Jackson Blvd,41.87308766666666,-87.65243908333333
Canal St & Madison St,41.846373666666665,-87.613945
Canal St & Monroe St,41.88037141666666,-87.6384325
Canal St & Taylor St,41.852228833333335,-87.62882525
Cannon Dr & Fullerton Ave,41.90475958333333,-87.62422866666667
Carpenter St & 63rd St,41.779869,-87.65080958333333
Carpenter St & Huron St,41.89013141666666,-87.65092949999999
Central Ave & Chicago Ave,41.894869916666664,-87.76494008333333
Central Ave & Harrison St,41.8697425,-87.7389
Central Ave & Lake St,41.887448666666664,-87.76521249999999
Central Ave & Madison St,41.88010283333334,-87.76316058333333
Central Ave & Parker Ave,41.93,-87.77
Central Ave & Roscoe St,41.94,-87.77
Central Park & Augusta Blvd,41.9,-87.72
Central Park Ave & 24th St,41.84796433333333,-87.71498083333333
Central Park Ave & Bloomingdale Ave,41.91386758333333,-87.71602083333333
Central Park Ave & Douglas Blvd,41.86,-87.72
Central Park Ave & Elbridge Ave,41.931803333333335,-87.71693008333332
Central Park Ave & North Ave,41.88848924999999,-87.71314158333334
Central Park Ave & Ogden Ave,41.85350291666666,-87.71505975
Central Park Ave & Ohio St,41.89,-87.715
Central Park Blvd & 5th Ave,41.860065083333325,-87.70543175
Central St & Girard Ave,42.06405275,-87.68605016666666
Central St Metra,42.06111075,-87.69630433333333
Cherry Ave & Blackhawk St,41.906718,-87.65515875
Chicago Ave & Dempster St,42.041673833333334,-87.68070850000001
Chicago Ave & Sheridan Rd,42.04876733333333,-87.68042466666667
Chicago Ave & Washington St,42.032308916666665,-87.67914825
Chicago State University,41.71891575,-87.60836616666667
Christiana Ave & Lawrence Ave,41.95704091666667,-87.70962158333333
Cicero Ave & Flournoy St,41.87210975,-87.74670416666666
Cicero Ave & Grace St,41.95,-87.72999999999999
Cicero Ave & Lake St,41.88676433333333,-87.74537766666667
Cicero Ave & Quincy St,41.877292499999996,-87.74536925
Cityfront Plaza Dr & Pioneer Ct,41.8855965,-87.62906225
Claremont Ave & Hirsch St,41.90534158333333,-87.69452116666668
Clarendon Ave & Gordon Ter,41.92027183333333,-87.63240049999999
Clarendon Ave & Junior Ter,41.92703358333333,-87.6632225
Clarendon Ave & Leland Ave,41.933852,-87.64027825
Clark St & 9th St (AMLI),41.868763916666666,-87.62238633333334
Clark St & Armitage Ave,41.893943,-87.654958
Clark St & Berwyn Ave,41.95683266666667,-87.67315658333334
Clark St & Bryn Mawr Ave,41.96006975,-87.65618608333334
Clark St & Chicago Ave,41.8885145,-87.630282
Clark St & Columbia Ave,41.98480216666667,-87.67360316666667
Clark St & Drummond Pl,41.902467916666666,-87.63034608333334
Clark St & Elm St,41.886277166666666,-87.62424999999999
Clark St & Elmdale Ave,41.97312716666667,-87.65698716666667
Clark St & Grace St,41.91912683333333,-87.65562216666666
Clark St & Ida B Wells Dr,41.87518166666666,-87.63018933333333
Clark St & Jarvis Ave,42.0126695,-87.67446933333332
Clark St & Lake St,41.87666475,-87.62821758333334
Clark St & Leland Ave,41.93633333333334,-87.68711025
Clark St & Lincoln Ave,41.89047108333334,-87.62614241666667
Clark St & Lunt Ave,42.003835499999994,-87.68015825
Clark St & Montrose Ave,41.938112833333335,-87.64599666666666
Clark St & Newport St,41.91612616666667,-87.65343666666666
Clark St & North Ave,41.89890316666666,-87.62277183333333
Clark St & Randolph St,41.85646258333334,-87.61637716666667
Clark St & Schiller St,41.88728516666667,-87.62034991666667
Clark St & Schreiber Ave,41.963045666666666,-87.64541258333334
Clark St & Touhy Ave,42.008716166666666,-87.68050475
Clark St & Wellington Ave,41.91227641666667,-87.64749391666666
Clark St & Winnemac Ave,41.95495583333333,-87.65772774999999
Clark St & Wrightwood Ave,41.902281,-87.65770708333334
Clifton Ave & Armitage Ave,41.90158516666666,-87.66691750000001
Clinton St & 18th St,41.853936833333336,-87.63964691666666
Clinton St & Jackson Blvd,41.86728791666666,-87.62682891666667
Clinton St & Lake St,41.88045175,-87.63548941666667
Clinton St & Madison St,41.85578191666667,-87.64251583333333
Clinton St & Polk St,41.87133908333334,-87.64095116666667
Clinton St & Roosevelt Rd,41.838074000000006,-87.61402675
Clinton St & Tilden St,41.87279225,-87.64327041666667
Clinton St & Washington Blvd,41.87196541666667,-87.66839816666666
Clybourn Ave & Division St,41.8945075,-87.62975625
Clyde Ave & 87th St,41.737174581666665,-87.57271816666666
Columbus Dr & Randolph St,41.84741975,-87.6041305
Commercial Ave & 100th St,41.7132905,-87.55120525
Commercial Ave & 130th St,41.65954716666667,-87.60041316666667
Commercial Ave & 83rd St,41.744599333333326,-87.55127516666667
Conservatory Dr & Lake St,41.87629533333333,-87.71612458333334
Constance Ave & 95th St,41.722135787142975,-87.57898303619513
Cornell Ave & Hyde Park Blvd,41.79682383333333,-87.59459716666666
Cornell Dr & Hayes Dr,41.7805075,-87.58516408333332
Cottage Grove Ave & 111th Pl,41.69120841666667,-87.610127
Cottage Grove Ave & 43rd St,41.814947000000004,-87.60658233333334
Cottage Grove Ave & 47th St,41.809736083333334,-87.60671049999999
Cottage Grove Ave & 51st St,41.80265716666666,-87.60707891666667
Cottage Grove Ave & 63rd St,41.78033333333333,-87.60610041666666
Cottage Grove Ave & 67th St,41.773647,-87.6056105
Cottage Grove Ave & 71st St,41.76569258333333,-87.60502283333332
Cottage Grove Ave & 78th St,41.75221908333333,-87.6064035
Cottage Grove Ave & 83rd St,41.7434135,-87.60484908333333
Cottage Grove Ave & Oakwood Blvd,41.81311616666667,-87.60681625000001
DIVVY CASSETTE REPAIR MOBILE STATION,41.88100275,-87.61675841666667
Daley Center Plaza,41.84974216666667,-87.61109816666666
Damen Ave & 33rd St,41.83,-87.65
Damen Ave & 51st St,41.80088725,-87.67465066666666
Damen Ave & 59th St,41.785406916666666,-87.6739585
Damen Ave & Charleston St,41.90358258333333,-87.6683805
Damen Ave & Chicago Ave,41.882531916666665,-87.67020875
Damen Ave & Clybourn Ave,41.915274749999995,-87.66052733333333
Damen Ave & Cortland St,41.8973655,-87.66010075
Damen Ave & Coulter St,41.84888758333334,-87.67574775
Damen Ave & Cullerton St,41.84125458333334,-87.66751225
Damen Ave & Division St,41.89183183333333,-87.67388841666667
Damen Ave & Foster Ave,41.96248773562833,-87.69610685268333
Damen Ave & Grand Ave,41.881995749999994,-87.67291191666666
Damen Ave & Leland Ave,41.96425925,-87.67650791666667
Damen Ave & Madison St,41.88132041666667,-87.67578216666666
Damen Ave & Melrose Ave,41.93518791666666,-87.66674900000001
Damen Ave & Pershing Rd,41.8231485,-87.67667216666666
Damen Ave & Pierce Ave,41.88285075325,-87.6768037146
Damen Ave & Sunnyside Ave,41.94772566666667,-87.68222716666666
Damen Ave & Thomas St (Augusta Blvd),41.89559908333334,-87.664897
Damen Ave & Wabansia Ave,41.91,-87.655
Damen Ave & Walnut (Lake) St,41.88333941666667,-87.67929183333334
Damen Ave & Wellington Ave,41.919035083333334,-87.65787175
Dauphin Ave & 103rd St,41.70728991666667,-87.60768166666666
Dauphin Ave & 87th St,41.73638641666666,-87.60125475000001
Dayton St & North Ave,41.901036833333336,-87.63371933333335
Dearborn Pkwy & Delaware Pl,41.86798066666667,-87.62165391666667
Dearborn St & Adams St,41.859838833333335,-87.623086
Dearborn St & Erie St,41.88775283333334,-87.62923941666666
Dearborn St & Monroe St,41.84657583333333,-87.60986025
Dearborn St & Van Buren St,41.872667,-87.64893108333334
Delano Ct & Roosevelt Rd,41.85185691666666,-87.61981091666667
Desplaines St & Jackson Blvd,41.87105575,-87.63425883333333
Desplaines St & Kinzie St,41.883158331666664,-87.63692549999999
Desplaines St & Randolph St,41.87873166666667,-87.64649058333333
Dodge Ave & Church St,42.04857183333333,-87.6819945
Dodge Ave & Main St,42.034712,-87.69915983333334
Dodge Ave & Mulford St,42.022221083333335,-87.69952883333333
Dorchester Ave & 49th St,41.8049925,-87.59349158333333
Dorchester Ave & 63rd St,41.78033166666667,-87.5913775
Doty Ave & 111th St,41.69500547469072,-87.59872924757894
Drake Ave & Addison St,41.91783158333333,-87.6744395
Drake Ave & Montrose Ave,41.92848025,-87.67139008333334
DuSable Lake Shore Dr & Belmont Ave,41.91292991666667,-87.63482191666667
DuSable Lake Shore Dr & Diversey Pkwy,41.885190333333334,-87.62187750000001
DuSable Lake Shore Dr & Monroe St,41.840753750000005,-87.598931
DuSable Lake Shore Dr & North Blvd,41.883650583333335,-87.61954275
DuSable Lake Shore Dr & Ohio St,41.85241358333333,-87.60211266666667
DuSable Lake Shore Dr & Wellington Ave,41.90979158333333,-87.62552691666667
DuSable Museum,41.79148575000001,-87.60768958333334
Dusable Harbor,41.84715941666667,-87.5993225
East End Ave & 87th St,41.73671158333333,-87.5828055
Eastlake Ter & Rogers Ave,42.01716225,-87.66657825
Eberhart Ave & 131st St,41.657954,-87.61078475
Eberhart Ave & 61st St,41.78400716666667,-87.61330941666667
Eberhart Ave & 91st St,41.72960741666667,-87.58086816666668
Eckhart Park,41.89075483333333,-87.65130333333333
Eggleston Ave & 69th St,41.768894833333334,-87.63609641666667
Eggleston Ave & 92nd St,41.72730408333334,-87.63491008333332
Elizabeth (May) St & Fulton St,41.88100516666667,-87.64913283333334
Elizabeth St & 47th St,41.80833608333333,-87.65650366666667
Elizabeth St & 59th St,41.7865905,-87.65585708333333
Elizabeth St & 92nd St,41.72671,-87.65428866666667
Ellis Ave & 53rd St,41.79531741666666,-87.60212583333333
Ellis Ave & 55th St,41.790022,-87.601306
Ellis Ave & 58th St,41.78765033333333,-87.60120225
Ellis Ave & 60th St,41.772656999999995,-87.57886375
Ellis Ave & 83rd St,41.744024333333336,-87.59926416666667
Elmwood Ave & Austin St,42.019432914999996,-87.69576691500001
Elston Ave & Cortland St,41.91516433333334,-87.66020558333332
Elston Ave & George St,41.93,-87.67
Elston Ave & Henderson St,41.94,-87.695
Elston Ave & Wabansia Ave,41.91080916666667,-87.65707025
Emerald Ave & 28th St,41.825413,-87.61560691666666
Emerald Ave & 31st St,41.8327785,-87.64437641666666
Evans Ave & 75th St,41.7562245,-87.60586441666666
Evanston Civic Center,42.05674958333333,-87.68653233333333
Ewing Ave & Burnham Greenway,41.71265058333333,-87.5345915
Exchange Ave & 79th St,41.75163066666667,-87.55292908333334
Fairbanks Ct & Grand Ave,41.850441000000004,-87.60372925
Fairbanks St & Superior St,41.86060941666666,-87.60931691666667
Fairfield Ave & 44th St,41.81,-87.655
Fairfield Ave & Roosevelt Rd,41.86638241666667,-87.70554375
Federal St & Polk St,41.84151933333334,-87.60882483333333
Field Blvd & South Water St,41.85373916666667,-87.60729083333334
Field Museum,41.837791583333335,-87.60273541666666
Financial Pl & Ida B Wells Dr,41.872305833333336,-87.64113375
Fort Dearborn Dr & 31st St,41.823205083333335,-87.59718341666667
Francisco Ave & 47th St,41.81,-87.7
Francisco Ave & Bloomingdale Ave,41.91,-87.695
Francisco Ave & Foster Ave,41.96612416666666,-87.67321791666666
Francisco Ave & Hollywood Ave,41.98,-87.695
Francisco Ave & Montrose Ave,41.96,-87.67
Franklin St & Adams St (Temp),41.87687721236673,-87.63198225366975
Franklin St & Chicago Ave,41.87390008333333,-87.63712841666667
Franklin St & Illinois St,41.887945083333335,-87.63559033333334
Franklin St & Jackson Blvd,41.87341689461667,-87.65461448706667
Franklin St & Lake St,41.87212091666667,-87.63038616666667
Franklin St & Monroe St,41.87780466666667,-87.62900733333333
Glenwood Ave & Morse Ave,41.970212333333336,-87.66446741666667
Glenwood Ave & Touhy Ave,41.996102833333325,-87.67023925000001
Green St & Madison St,41.870267,-87.63470491666666
Green St & Randolph St,41.875540083333334,-87.66848083333333
Greenview Ave & Diversey Pkwy,41.913774733815615,-87.64620825874457
Greenview Ave & Fullerton Ave,41.90987391666667,-87.6449255
Greenview Ave & Jarvis Ave,42.013991833333336,-87.66837483333333
Greenwood Ave & 47th St,41.804643999999996,-87.59862258333334
Greenwood Ave & 79th St,41.75114283333333,-87.59771358333333
Greenwood Ave & 91st St,41.728264134081364,-87.59729881106568
Greenwood Ave & 97th St,41.71864816666667,-87.59702974999999
HUBBARD ST BIKE CHECKING (LBS-WH-TEST),41.889928749999996,-87.68021741666666
Hale Ave & 107th St,41.69912158333334,-87.66889391666666
Halsted & 63rd - Kennedy-King Vaccination Site,41.77934441666667,-87.64458124999999
Halsted St & 104th St,41.705148916666666,-87.64246925
Halsted St & 111th St,41.69226891666666,-87.6426675
Halsted St & 18th St,41.857084916666665,-87.64974883333333
Halsted St & 18th St (Temp),41.85768925,-87.65053458333333
Halsted St & 21st St,41.85364516666667,-87.64648016666666
Halsted St & 35th St,41.821805749999996,-87.61867724999999
Halsted St & 37th St,41.826809335,-87.64583575
Halsted St & 47th Pl,41.80811466666666,-87.64566366666668
Halsted St & 51st St,41.80154233333333,-87.65178308333333
Halsted St & 56th St,41.79292964599,-87.6449900565
Halsted St & 59th St,41.787539,-87.644874
Halsted St & 63rd St,41.779355085,-87.64462575
Halsted St & 69th St,41.76899402682667,-87.64462387228333
Halsted St & 73rd St,41.761603,-87.644001
Halsted St & 78th St,41.752477666666664,-87.64375966666667
Halsted St & 96th St,41.7198135,-87.63150983333333
Halsted St & Archer Ave,41.84444908333333,-87.65224125
Halsted St & Clybourn Ave,41.88877575,-87.6303585
Halsted St & Dickens Ave,41.89084258333334,-87.64392875
Halsted St & Maxwell St,41.8647005,-87.64705583333333
Halsted St & North Branch St,41.89700591666667,-87.64548616666667
Halsted St & Polk St,41.864016166666666,-87.65400275
Halsted St & Roosevelt Rd,41.86725683333333,-87.64979958333333
Halsted St & Roscoe St,41.91491233333333,-87.63108408333332
Halsted St & Willow St,41.90190633333333,-87.64711274999999
Halsted St & Wrightwood Ave,41.912033083333334,-87.64048008333333
Hamlin Ave & 62nd Pl,41.78,-87.72
Hampden Ct & Diversey Ave,41.93,-87.63499999999999
Harding Ave & 26th St,41.84,-87.72
Harlem & Irving Park,41.95,-87.81
Harlem Ave & Grace St,41.95,-87.81
Harper Ave & 59th St,41.78763824999999,-87.58894591666666
Hegewisch Metra Station,41.594291999999996,-87.54812725
Hermitage Ave & Polk St,41.87028083333333,-87.6744
Homan Ave & Fillmore St,41.87,-87.71
Homewood Ave & 115th St,41.684558833333334,-87.67085183333333
Honore St & Division St,41.8785585,-87.67552241666667
Houston Ave & 92nd St,41.7281695,-87.54955899999999
Hoyne Ave & 34th St,41.83,-87.68
Hoyne Ave & 47th St,41.807411083333335,-87.67716341666667
Hoyne Ave & Balmoral Ave,41.9675835,-87.66307266666666
Humboldt Blvd & Armitage Ave,41.90359825,-87.67955291666667
Indiana Ave & 103rd St,41.7071375,-87.618256
Indiana Ave & 133rd St,41.65,-87.58000000000001
Indiana Ave & 26th St,41.835066499999996,-87.610501
Indiana Ave & 31st St,41.830085499999996,-87.60950133333333
Indiana Ave & 40th St,41.81867733333333,-87.62133916666667
Indiana Ave & Roosevelt Rd,41.838224499999995,-87.60483241666667
Jefferson St & Monroe St,41.8750705,-87.64097325
Jeffery Blvd & 67th St,41.77329075,-87.57699916666667
Jeffery Blvd & 71st St,41.766400583333336,-87.57657474999999
Jeffery Blvd & 76th St,41.757111617343334,-87.57586184601666
Karlov Ave & Madison St,41.880810249999996,-87.72782366666667
Kedzie Ave & 104th St,41.7,-87.69
Kedzie Ave & 110th St,41.692346916666665,-87.70096558333333
Kedzie Ave & 21st St,41.85342358333334,-87.70513458333333
Kedzie Ave & 24th St,41.848146472455,-87.70345303956667
Kedzie Ave & 48th Pl,41.8,-87.7
Kedzie Ave & 52nd St,41.8,-87.7
Kedzie Ave & 57th St,41.79,-87.695
Kedzie Ave & Bryn Mawr Ave,41.97840724833333,-87.70629641666667
Kedzie Ave & Chicago Ave,41.89005016666667,-87.70915016666666
Kedzie Ave & Foster Ave,41.975484081666664,-87.70908750166666
Kedzie Ave & George St,41.93,-87.705
Kedzie Ave & Harrison St,41.87255908333333,-87.71504825
Kedzie Ave & Lake St,41.88446275,-87.70643483333333
Kedzie Ave & Leland Ave,41.961477083333335,-87.67643675
Kedzie Ave & Milwaukee Ave,41.9086205,-87.680823
Kedzie Ave & Palmer Ct,41.905186916666665,-87.67438741666666
Kedzie Ave & Roosevelt Rd,41.86646147419333,-87.70665683785
Keeler Ave & Roosevelt Rd,41.87,-87.725
Kenneth Ave & 50th St,41.8,-87.725
Kenosha & Wellington,41.93,-87.72
Kenton Ave & Madison St,41.88014016666666,-87.74076966666667
Keystone Ave & Fullerton Ave,41.92198608333333,-87.72857516666667
Keystone Ave & Montrose Ave,41.958796416666665,-87.72605441666667
Kilbourn & Belden,41.92,-87.725
Kilbourn & Roscoe,41.94,-87.735
Kilbourn Ave & Irving Park Rd,41.95358783333333,-87.74214791666667
Kilbourn Ave & Milwaukee Ave,41.946670166666664,-87.73971416666666
Kildare Ave & 26th St,41.84,-87.73
Kildare Ave & 47th St,41.81,-87.72
Kildare Ave & 55th St,41.79,-87.725
Kildare Ave & Chicago Ave,41.9,-87.73
Kildare Ave & Division St,41.9,-87.725
Kildare Ave & Montrose Ave,41.96099641666666,-87.73564999999999
Kilpatrick Ave & Grand Ave,41.91,-87.72
Kilpatrick Ave & Parker Ave,41.93,-87.74
Kimball Ave & Belmont Ave,41.934224416666666,-87.69737175
Kimbark Ave & 53rd St,41.77911408333333,-87.57261349999999
Kingsbury St & Erie St,41.885817083333336,-87.64642491666666
Kingsbury St & Kinzie St,41.88511458333333,-87.63990341666667
Knox Ave & Montrose Ave,41.94395675,-87.71294066666667
Komensky Ave & 31st St,41.84,-87.73
Komensky Ave & 55th St,41.79,-87.72
Kosciuszko Park,41.928503666666664,-87.72344991666667
Kostner Ave & 63rd St,41.78,-87.725
Kostner Ave & Adams St,41.87788491666666,-87.736047
Kostner Ave & Lake St,41.885816250000005,-87.73544941666667
Kostner Ave & Wrightwood Ave,41.93,-87.735
LaSalle Dr & Huron St,41.88863108333334,-87.6278695
LaSalle St & Adams St,41.87328566666667,-87.62093916666666
LaSalle St & Illinois St,41.88203941666667,-87.62436775
LaSalle St & Jackson Blvd,41.87593083333333,-87.62944300000001
LaSalle St & Washington St,41.84667116666667,-87.61003566666668
Laflin St & Cullerton St,41.84898858333334,-87.66124275
Lake Park Ave & 35th St,41.82721495107833,-87.6037553473
Lake Park Ave & 47th St,41.80477141666667,-87.58650991666667
Lake Park Ave & 53rd St,41.78693625,-87.57720441666666
Lake Park Ave & 56th St,41.78976891666667,-87.59528316666666
Lake Shore Dr & Belmont Ave,41.91165291666667,-87.62677141666666
Lake Shore Dr & Diversey Pkwy,41.92941408333333,-87.6376555
Lake Shore Dr & Monroe St,41.85161316666667,-87.60761991666666
Lake Shore Dr & North Blvd,41.876483583333325,-87.62125133333333
Lake Shore Dr & Ohio St,41.85130383333333,-87.60098016666666
Lake Shore Dr & Wellington Ave,41.914622916666666,-87.63614966666667
Lakefront Trail & Bryn Mawr Ave,41.942480749999994,-87.63868541666668
Lakefront Trail & Wilson Ave,41.95907725,-87.64559766666667
Lakeview Ave & Fullerton Pkwy,41.9063405,-87.62621358333334
Lamon Ave & Armitage Ave,41.92,-87.75
Lamon Ave & Belmont Ave,41.94,-87.75
Lamon Ave & Chicago Ave,41.9,-87.75
Laramie Ave & Gladys Ave,41.87580833333333,-87.75527825
Laramie Ave & Kinzie St,41.8861975,-87.72237391666667
Laramie Ave & Madison St,41.88018891666667,-87.7554015
Larrabee St & Armitage Ave,41.903474001666666,-87.63404025
Larrabee St & Division St,41.88175108333333,-87.63365575
Larrabee St & Kingsbury St,41.89221416666666,-87.6447615
Larrabee St & Menomonee St,41.900385,-87.62832075
Larrabee St & North Ave,41.89550175,-87.63921808333333
Larrabee St & Oak St,41.89112782994833,-87.66495715046668
Larrabee St & Webster Ave,41.89573675,-87.63048141666667
Latrobe Ave & Chicago Ave,41.89465758333333,-87.75687675
Lavergne & Fullerton,41.92,-87.75
Lavergne Ave & 46th St,41.81,-87.75
Lavergne Ave & Division St,41.9,-87.745
Lawler Ave & 50th St,41.8,-87.74000000000001
Lawndale Ave & 111th St,41.69127458333334,-87.71289075
Lawndale Ave & 16th St,41.86,-87.72
Lawndale Ave & 30th St,41.84,-87.66499999999999
Leamington Ave & Hirsch St,41.91,-87.75
Leavitt St & Addison St,41.92890366666667,-87.65735283333333
Leavitt St & Archer Ave,41.82866366666667,-87.68067466666668
Leavitt St & Armitage Ave,41.90994066666667,-87.673447
Leavitt St & Belmont Ave,41.92153533333334,-87.67080949999999
Leavitt St & Chicago Ave,41.892287499999995,-87.66344749999999
Leavitt St & Division St,41.898068,-87.66709
Leavitt St & Lawrence Ave,41.95343791666667,-87.67525608333334
Leavitt St & North Ave,41.900877016665305,-87.6621820104599
Lincoln Ave & Addison St,41.9400315,-87.66702875
Lincoln Ave & Balmoral Ave,41.98,-87.675
Lincoln Ave & Belle Plaine Ave,41.946895166666664,-87.69388233333333
Lincoln Ave & Belmont Ave,41.92350633333333,-87.65145433333333
Lincoln Ave & Diversey Pkwy,41.909849,-87.6528835
Lincoln Ave & Fullerton Ave,41.9068215,-87.63659416666667
Lincoln Ave & Peterson Ave,41.99,-87.705
Lincoln Ave & Roscoe St,41.927059166666666,-87.68268608333332
Lincoln Ave & Sunnyside Ave,41.945600999999996,-87.69344725
Lincoln Ave & Waveland Ave,41.93781841666667,-87.66293508333334
Lincoln Ave & Winona St,41.95295775,-87.66834866666667
Lincoln Park Conservatory,41.90758199999999,-87.63550425
Lincolnwood Dr & Central St,42.060759,-87.71386625
Lockwood Ave & Wrightwood Ave,41.93,-87.755
Logan Blvd & Elston Ave,41.923134833333336,-87.66043566666667
Long & Irving Park,41.95,-87.76
Long Ave & Belden Ave,41.92,-87.76
Long Ave & Belmont Ave,41.94,-87.76
Long Ave & North Ave,41.91,-87.76
Loomis Blvd & 84th St,41.7414435,-87.6583655
Loomis St & 89th St,41.732385083333334,-87.65792400000001
Loomis St & Archer Ave,41.836397833333336,-87.65659475
Loomis St & Jackson Blvd,41.86317366666667,-87.64281291666667
Loomis St & Lexington St,41.864037999999994,-87.66387491666666
Lyft Driver Center Private Rack,41.9,-87.66
MLK Jr Dr & 29th St,41.82579249999999,-87.60429666666667
MLK Jr Dr & 47th St,41.80894241666667,-87.61632850166666
MLK Jr Dr & 56th St,41.79339866666667,-87.61587175
MLK Jr Dr & 63rd St,41.77998358333333,-87.67779225
MLK Jr Dr & 83rd St,41.7430595,-87.61482774999999
MLK Jr Dr & Pershing Rd,41.81798508333333,-87.60268216666667
Major Ave & Bloomingdale Ave,41.91,-87.77
Major Taylor Trail & 115th St,41.68491646426315,-87.64529576957958
Major Taylor Trail & 124th St,41.669337166666665,-87.59363775
Malcolm X College,41.877586085000004,-87.67387550000001
Malcolm X College Vaccination Site,41.873215,-87.66649666666666
Manor Ave & Leland Ave,41.94689325,-87.69128616666666
Maplewood Ave & 59th St,41.79,-87.69
Maplewood Ave & Peterson Ave,41.99008116666666,-87.69338400000001
Marine Dr & Ainslie St,41.927460583333335,-87.63171883333334
Marquette Ave & 89th St,41.73361383333334,-87.55850541666666
Marshfield Ave & 44th St,41.81312908333334,-87.66763375
Marshfield Ave & 59th St,41.786797500000006,-87.66622708333333
Marshfield Ave & Cortland St,41.91494675,-87.67936025
Maryland Ave & 104th St,41.71,-87.6
Mason Ave & Belmont Ave,41.94,-87.775
May St & 69th St,41.76886075,-87.65286875000001
May St & Cullerton St,41.85458766666667,-87.65229791666667
May St & Taylor St,41.865996249999995,-87.65601050000001
McClurg Ct & Erie St,41.88514333333333,-87.62358933333334
McCormick Place,41.83172991666666,-87.60398641666666
Meade Ave & Addison St,41.95,-87.77000000000001
Meade Ave & Diversey Ave,41.93,-87.775
Menard Ave & Division St,41.9,-87.765
Menard Ave & North Ave,41.91,-87.765
Michigan Ave & 114th St,41.68698589733559,-87.62114713258362
Michigan Ave & 14th St,41.840686000000005,-87.60906425
Michigan Ave & 18th St,41.845829916666666,-87.64749041666667
Michigan Ave & 71st St,41.76365525,-87.62170983333333
Michigan Ave & 8th St,41.85998416666666,-87.61689191666667
Michigan Ave & Ida B Wells Dr,41.874237666666666,-87.62416675
Michigan Ave & Jackson Blvd,41.851992,-87.61121791666667
Michigan Ave & Lake St,41.85407425,-87.61113416666666
Michigan Ave & Madison St,41.84629258333334,-87.62561608333334
Michigan Ave & Oak St,41.855042749999996,-87.6055
Michigan Ave & Pearson St,41.890313083333325,-87.61866241666667
Michigan Ave & Washington St,41.848349666666664,-87.60691941666667
Mies van der Rohe Way & Chestnut St,41.8573905,-87.60805941666666
Mies van der Rohe Way & Chicago Ave,41.880947,-87.61769291666667
Millard Ave & 26th St,41.844465562310816,-87.71597458234532
Millennium Park,41.84502258333333,-87.60553158333335
Milwaukee Ave & Cuyler Ave,41.948085,-87.74812933333334
Milwaukee Ave & Fullerton Ave,41.92,-87.695
Milwaukee Ave & Grand Ave,41.87473575,-87.66142983333333
Milwaukee Ave & Rockwell St,41.90250783333333,-87.66260433333333
Milwaukee Ave & Wabansia Ave,41.90279275,-87.66581533333334
Monticello Ave & Chicago Ave,41.9,-87.705
Monticello Ave & Irving Park Rd,41.94630383333333,-87.708111
Montrose Harbor,41.94964841666666,-87.63524183333334
Morgan Ave & 14th Pl,41.858230750000004,-87.63511783333334
Morgan St & 18th St,41.84008183333333,-87.6243195
Morgan St & 31st St,41.83228716666667,-87.65102241666666
Morgan St & Lake St,41.864733333333334,-87.67387866666667
Morgan St & Pershing Rd,41.823604333333336,-87.65088516666665
Morgan St & Polk St,41.84651475,-87.62450824999999
Mozart St & Jackson Blvd,41.88,-87.69
Mulligan Ave & Wellington Ave,41.93,-87.78
Museum of Science and Industry,41.785640416666666,-87.57934441666666
N Carpenter St & W Lake St,41.89,-87.65
N Clark St & W Elm St,41.9,-87.625
N Damen Ave & W Chicago Ave,41.9,-87.67500000000001
N Damen Ave & W Wabansia St,41.91,-87.68
N Green St & W Lake St,41.89,-87.64500000000001
N Hampden Ct & W Diversey Ave,41.93,-87.64
N Paulina St & Lincoln Ave,41.94,-87.67
N Sheffield Ave & W Wellington Ave,41.94,-87.65
N Shore Channel Trail & Argyle Ave,41.97,-87.695
N Southport Ave & W Newport Ave,41.94,-87.66
Narragansett & Irving Park,41.95,-87.79
Narragansett & McLean,41.92,-87.785
Narragansett & Wrightwood,41.93,-87.79
Narragansett Ave & School St,41.94,-87.79
New St & Illinois St,41.88208041666667,-87.62208749999999
Noble St & Milwaukee Ave,41.888593,-87.66721433333333
Nordica & Medill,41.92,-87.795
Normal Ave & Archer Ave,41.848789583333335,-87.63919816666666
North Ave & New England Ave,41.91,-87.785
Oak Park & Wellington,41.93,-87.795
Oakley Ave & Irving Park Rd,41.940028676095,-87.68683431215001
Oakley Ave & Touhy Ave,42.01226083333333,-87.688419
Ogden Ave & Chicago Ave,41.88579008333333,-87.65540558333333
Ogden Ave & Congress Pkwy,41.87321225,-87.67233316666668
Ogden Ave & Race Ave,41.882419666666664,-87.66389758333332
Ogden Ave & Roosevelt Rd,41.85785890824667,-87.68994736833334
Oglesby Ave & 100th St,41.713214,-87.56587300000001
Oketo Ave & Addison St,41.94,-87.81
Orange & Addison,41.94,-87.815
Orleans St & Chestnut St (NEXT Apts),41.8764415,-87.65797083333334
Orleans St & Elm St,41.8879985,-87.62732175
Orleans St & Hubbard St,41.886737499999995,-87.63595025000001
Orleans St & Merchandise Mart Plaza,41.88479275,-87.63558025
Panama Ave & Grace St,41.95,-87.83
Parkside Ave & Armitage Ave,41.92,-87.77
Paulina Ave & North Ave,41.899779499999994,-87.65375183500001
Paulina St & 18th St,41.84450833333334,-87.64278958333333
Paulina St & Flournoy St,41.87101358333334,-87.67408241666666
Paulina St & Howard St,42.018258333333335,-87.67335541666667
Paulina St & Montrose Ave,41.95139466666667,-87.65651408333333
Peoria St & Jackson Blvd,41.86766166666666,-87.65903925
Perry Ave & 69th St,41.766878000000005,-87.60063625
Phillips Ave & 79th St,41.75170633333333,-87.56538183333333
Phillips Ave & 83rd St,41.74448525,-87.565142
Pine Grove Ave & Irving Park Rd,41.92779625,-87.633775
Pine Grove Ave & Waveland Ave,41.91955925,-87.64705883333333
Ping Tom Park (East),41.86,-87.625
Plainfield & Irving Park,41.95,-87.82
Prairie Ave & 43rd St,41.816178916666665,-87.61959566666667
Prairie Ave & Garfield Blvd,41.79477391666667,-87.61872783333334
Princeton Ave & 47th St,41.80918891666666,-87.63487075
Princeton Ave & Garfield Blvd,41.79453216666667,-87.63239725
Prospect Sq & 91st St,41.72791891666667,-87.66761658333334
Pulaski & Ann Lurie Pl,41.82,-87.71000000000001
Pulaski Rd & 21st St,41.85,-87.715
Pulaski Rd & 51st St,41.8,-87.72
Pulaski Rd & 60th St,41.78,-87.72
Pulaski Rd & Congress Pkwy,41.87147541666667,-87.72268183333333
Pulaski Rd & Eddy St (Temp),41.937225,-87.70645925
Pulaski Rd & Lake St,41.877224749999996,-87.72601633333333
Racine Ave & 13th St,41.86405225,-87.65679441666667
Racine Ave & 15th St,41.855396999999996,-87.65148174999999
Racine Ave & 18th St,41.848273250000005,-87.65076491666667
Racine Ave & 35th St,41.820082416666665,-87.62188558333332
Racine Ave & 61st St,41.78317391666667,-87.65440491666666
Racine Ave & 65th St,41.77535491666667,-87.65428483333334
Racine Ave & Belmont Ave,41.914643999999996,-87.65319525
Racine Ave & Congress Pkwy,41.867342835,-87.651752585
Racine Ave & Fullerton Ave,41.91241674999999,-87.64650983333334
Racine Ave & Garfield Blvd,41.79420283333333,-87.65514766666666
Racine Ave & Randolph St,41.88338125,-87.63606133333334
Racine Ave & Washington Blvd,41.880292,-87.65694816666667
Racine Ave & Wrightwood Ave,41.92207616666666,-87.64881916666667
Rainbow Beach,41.752173724144996,-87.54488045833332
Ravenswood Ave & Berteau Ave,41.954802666666666,-87.6711785
Ravenswood Ave & Irving Park Rd,41.94383033333334,-87.68572775
Ravenswood Ave & Lawrence Ave,41.95243383333333,-87.67621600000001
Rhodes Ave & 32nd St,41.82488508333333,-87.60187583333334
Rhodes Ave & 71st St,41.76595316666667,-87.61186333333333
Richmond St & 59th St,41.79,-87.7
Richmond St & Diversey Ave,41.92834974833333,-87.69641033166667
Richmond St & Lincoln Ave,41.99,-87.695
Ridge Blvd & Howard St,42.019093,-87.68441375
Ridge Blvd & Touhy Ave,42.00995825,-87.67957708333333
Ritchie Ct & Banks St,41.89485008333334,-87.62069575
Rockwell St & 57th St,41.79,-87.645
Rockwell St & Archer Ave,41.82,-87.66
Rockwell St & Cermak Rd,41.85,-87.655
Rockwell St & Eastwood Ave,41.94629583333334,-87.7003015
Rockwell St & Fletcher St,41.94,-87.69
Roscoe & Harlem,41.94,-87.81
Rush St & Cedar St,41.89367483333333,-87.63175891666667
Rush St & Hubbard St,41.88791466666666,-87.67793283333333
Rush St & Superior St,41.89057866666667,-87.63020275
S Aberdeen St & W 106th St,41.7,-87.59
S Michigan Ave & E 118th St,41.68,-87.62
S Wentworth Ave & W 111th St,41.69,-87.625
Sacramento Ave & 25th St,41.85,-87.695
Sacramento Ave & Pershing Rd,41.82,-87.7
Sacramento Blvd & Addison St,41.95,-87.695
Sacramento Blvd & Franklin Blvd,41.890468791219305,-87.70260751123703
Sacramento Blvd & Fulton Ave,41.89,-87.69
Sacramento Blvd & Polk St,41.87,-87.695
Sangamon St & Washington Blvd,41.881083000000004,-87.6461365
Sawyer Ave & Irving Park Rd,41.943887249999996,-87.6850805
Sayre & Diversey,41.93,-87.8
Sedgwick St & Huron St,41.891522249999994,-87.6318695
Sedgwick St & North Ave,41.90057241666666,-87.63710866666668
Sedgwick St & Schiller St,41.90353125,-87.63790466666667
Sedgwick St & Webster Ave,41.90294758333333,-87.62756783333333
Seeley Ave & Garfield Blvd,41.79410108333333,-87.67549883333334
Seeley Ave & Roscoe St,41.9357515,-87.67887941666666
Shabbona Park,41.94,-87.795
Shedd Aquarium,41.838049416666664,-87.60117650000001
Sheffield Ave & Fullerton Ave,41.901066,-87.65042700000001
Sheffield Ave & Kingsbury St,41.89806625,-87.64732525
Sheffield Ave & Waveland Ave,41.90853308333333,-87.665199
Sheffield Ave & Webster Ave,41.9090135,-87.64552466666666
Sheffield Ave & Wellington Ave,41.906425416666664,-87.64985083333333
Sheffield Ave & Willow St,41.901390915,-87.64793141666667
Sheffield Ave & Wrightwood Ave,41.89581033333333,-87.65529358333333
Sheridan Rd & Buena Ave,41.94230533333334,-87.6479645
Sheridan Rd & Columbia Ave,41.98201783333333,-87.6536155
Sheridan Rd & Greenleaf Ave,42.004911698086666,-87.66152246406668
Sheridan Rd & Irving Park Rd,41.92644008333333,-87.64582883333333
Sheridan Rd & Lawrence Ave,41.96232358333333,-87.64937725
Sheridan Rd & Loyola Ave,41.97830741666667,-87.65279425
Sheridan Rd & Montrose Ave,41.9462385,-87.64933916666666
Sheridan Rd & Noyes St (NU),42.03923725,-87.67791633333334
Shields Ave & 28th Pl,41.84123866666667,-87.63477375
Shields Ave & 31st St,41.82797108333334,-87.61495866666667
Shields Ave & 43rd St,41.81612925,-87.634424
Shore Dr & 55th St,41.78542233333333,-87.57672033333333
Smith Park,41.88353574999999,-87.68132858333334
South Chicago Ave & 83rd St,41.74386658333333,-87.575178
South Chicago Ave & Elliot Ave,41.74860641666667,-87.62517466666667
South Shore Dr & 67th St,41.77277291666667,-87.56691775
South Shore Dr & 71st St,41.76627766666667,-87.56573166666666
South Shore Dr & 74th St,41.760552063523335,-87.55529824166666
Southport Ave & Belmont Ave,41.91419904186921,-87.64347858413315
Southport Ave & Clark St,41.94253916666666,-87.65895016666667
Southport Ave & Clybourn Ave,41.895084999999995,-87.66401366666668
Southport Ave & Irving Park Rd,41.928503750000004,-87.64773991666667
Southport Ave & Roscoe St,41.91661925,-87.6544075
Southport Ave & Waveland Ave,41.928141499999995,-87.65605633333334
Southport Ave & Wellington Ave,41.92466366666667,-87.651162
Southport Ave & Wrightwood Ave,41.90916,-87.6545865
Spaulding Ave & 16th St,41.86,-87.705
Spaulding Ave & 63rd St,41.78,-87.69999999999999
Spaulding Ave & Armitage Ave,41.909223749999995,-87.69386308333333
Spaulding Ave & Division St,41.9026315,-87.70924458333333
Springfield Ave & 47th St,41.81,-87.72
St Louis Ave & 59th St,41.79,-87.71
St Louis Ave & Norman Bobbins Ave,41.79,-87.705
St. Clair St & Erie St,41.86773625,-87.6404465
St. Louis Ave & Balmoral Ave,41.963719999999995,-87.69494733333333
St. Louis Ave & Fullerton Ave,41.91797341666667,-87.69645166666666
State St & 123rd St,41.67173458333333,-87.628907
State St & 19th St,41.833435083333335,-87.60751391666666
State St & 29th St,41.84162225,-87.62689383333333
State St & 33rd St,41.82521908333334,-87.62355875
State St & 35th St,41.83097133333334,-87.62700883333333
State St & 54th St,41.7940045,-87.62570825
State St & 76th St,41.756971,-87.624621
State St & 79th St,41.75073375,-87.62444550000001
State St & 95th St,41.72158066666667,-87.62284241666666
State St & Harrison St,41.842019916666665,-87.60766916666667
State St & Kinzie St,41.88126358333333,-87.62789758333332
State St & Pearson St,41.88881825,-87.63469674999999
State St & Pershing Rd,41.822942535656665,-87.62657292591666
State St & Randolph St,41.85485833333333,-87.61411841666667
State St & Van Buren St,41.84979091666666,-87.61317475
Stave St & Armitage Ave,41.903156083333336,-87.67185733333332
Stetson Ave & South Water St,41.84958816666666,-87.60586633333334
Stewart Ave & 63rd St,41.779822083333336,-87.63481608333333
Stewart Ave & 83rd St,41.74359925,-87.63402966666666
Stockton Dr & Wrightwood Ave,41.889515,-87.62423858333332
Stony Island Ave & 64th St,41.77857833333333,-87.58659
Stony Island Ave & 67th St,41.77340374974,-87.58526553621667
Stony Island Ave & 71st St,41.766443718649995,-87.58645868875
Stony Island Ave & 75th St,41.758620750000006,-87.58704958333334
Stony Island Ave & 82nd St,41.74649408333333,-87.58606091666667
Stony Island Ave & 90th St,41.71458233333333,-87.58197841666666
Stony Island Ave & South Chicago Ave,41.750982750000006,-87.58548808333333
Streeter Dr & Grand Ave,41.84994833333333,-87.59911775
Summit Ave & 86th St,41.73890433333334,-87.6274935
Talman Ave & Addison St,41.93630941666667,-87.66683366666666
Theater on the Lake,41.87335458333333,-87.6140015
Throop St & 52nd St,41.799638916666666,-87.65718749999999
Throop St & Taylor St,41.86135041666666,-87.66014016666666
Throop/Hastings Mobile Station,41.85155642,-87.659157634
Torrence Ave & 106th St,41.702791250000004,-87.55985466666667
Torrence Ave & 126th Pl,41.66625441666667,-87.55718591666667
Tripp Ave & 15th St,41.86,-87.73
Tripp Ave & 31st St,41.84,-87.73
Tripp Ave & 65th St,41.77,-87.715
Troy St & Elston Ave,41.93565541666666,-87.67273574999999
Troy St & Grace St,41.95,-87.705
Troy St & North Ave,41.90889131751167,-87.70571966021666
Union Ave & Root St,41.819062249999995,-87.64319666666665
University Ave & 57th St,41.78885708333333,-87.60059441666667
University Library (NU),42.05203708333333,-87.67528633333333
Valli Produce - Evanston Plaza,42.03640166666666,-87.68098716666667
Vernon Ave & 107th St,41.70012708333333,-87.61232883333334
Vernon Ave & 75th St,41.758226083333334,-87.61411841666666
Vernon Ave & 79th St,41.74484066666666,-87.61658425
Vincennes Ave & 104th St,41.704898916666664,-87.65709283333334
Vincennes Ave & 75th St,41.75785375,-87.631202
Virginia Ave & Catalpa Ave,41.98,-87.71
W 103rd St & S Avers Ave,41.71,-87.68
W Armitage Ave & N Sheffield Ave,41.92,-87.65
W Oakdale Ave & N Broadway,41.94,-87.64
W Washington Blvd & N Peoria St,41.88,-87.65
WEST CHI-WATSON,41.89453443436459,-87.73066915642826
Wabash Ave & 16th St,41.835778250000004,-87.60720558333334
Wabash Ave & 83rd St,41.74328583333333,-87.62282566666667
Wabash Ave & 87th St,41.7365295,-87.6223775
Wabash Ave & 9th St,41.846146000000005,-87.61155366666667
Wabash Ave & Adams St,41.87441783333333,-87.62510441666666
Wabash Ave & Cermak Rd,41.83177833333333,-87.60745875
Wabash Ave & Grand Ave,41.864219,-87.620043
Wabash Ave & Roosevelt Rd,41.83788916666667,-87.60635016666667
Wabash Ave & Wacker Pl,41.87286091666667,-87.63611449999999
Wacker Dr & Washington St,41.881187833333335,-87.63560575
Walden Pkwy & 100th St,41.712159416666665,-87.667651
Wallace St & 35th St,41.8051875,-87.61044716666666
Walsh Park,41.90135433333333,-87.65771441666666
Warren Park East,41.97584916666666,-87.67708883333333
Warren Park West,41.9938865,-87.68913608333332
Washtenaw Ave & Lawrence Ave,41.9413615,-87.66552308333334
Washtenaw Ave & Madison St,41.88,-87.69
Washtenaw Ave & Ogden Ave,41.855822999999994,-87.67727441666666
Washtenaw Ave & Peterson Ave,41.99,-87.7
Washtenaw Ave & Polk St,41.87,-87.65
Wells St & 19th St,41.85666408333333,-87.63375333333333
Wells St & Concord Ln,41.896022083333335,-87.63519891666667
Wells St & Elm St,41.89029216666667,-87.64183816666667
Wells St & Evergreen Ave,41.89355091666667,-87.63678458333334
Wells St & Hubbard St,41.88711408333333,-87.62996166666667
Wells St & Huron St,41.88469808333333,-87.64079291666667
Wells St & Polk St,41.858039250000004,-87.63456083333332
Wells St & Walton St,41.89804783333334,-87.64747583333333
Wentworth Ave & 104th St,41.705334666666666,-87.62884733333334
Wentworth Ave & 24th St (Temp),41.846217333333335,-87.68823008333334
Wentworth Ave & 33rd St,41.833892692815,-87.62421615736667
Wentworth Ave & 35th St,41.829934083333335,-87.63748008333334
Wentworth Ave & 63rd St,41.78003316666667,-87.62969341666667
Wentworth Ave & Cermak Rd,41.817806250000004,-87.62856475000001
Western & 28th - Velasquez Institute Vaccination Site,41.84149408333333,-87.68514408333334
Western Ave & 104th St,41.704593333333335,-87.6811265
Western Ave & 111th St,41.68963983333333,-87.68313366666666
Western Ave & 21st St,41.852034833333335,-87.67342166666667
Western Ave & 24th St,41.84795425,-87.68402524999999
Western Ave & 28th St,41.84157124833334,-87.68512425166668
Western Ave & 62nd St,41.78,-87.655
Western Ave & Ardmore Ave,41.99,-87.675
Western Ave & Congress Pkwy,41.871323583333336,-87.68128166666666
Western Ave & Division St,41.89753116666667,-87.6877675
Western Ave & Fillmore St,41.86557416666666,-87.67176275
Western Ave & Grace St,41.95,-87.675
Western Ave & Granville Ave,41.99413366666667,-87.68937816666667
Western Ave & Gunnison St,41.97,-87.67
Western Ave & Howard St,41.992616999999996,-87.66945816666667
Western Ave & Lake St,41.88,-87.68
Western Ave & Leland Ave,41.94344825,-87.68327441666668
Western Ave & Lunt Ave,41.98608991666667,-87.67094491666667
Western Ave & Monroe St,41.87338008333333,-87.68112149999999
Western Ave & Roscoe St,41.920337333333336,-87.660735
Western Ave & Walton St,41.89062833333333,-87.67562908333333
Western Ave & Winnebago Ave,41.91233233333334,-87.68470400000001
Western Blvd & 48th Pl,41.797823585,-87.746693
Whipple St & Irving Park Rd,41.95,-87.7
Whipple St & Roosevelt Rd,41.87,-87.7
Whipple/Irving Park,41.95,-87.7
Wilton Ave & Belmont Ave,41.924083833333334,-87.65051224999999
Wilton Ave & Diversey Pkwy,41.91518216666667,-87.64490966666666
Winchester (Ravenswood) Ave & Balmoral Ave,41.961262835,-87.688713665
Winchester Ave & Elston Ave,41.91754050852333,-87.66211437068333
Winthrop Ave & Lawrence Ave,41.96214975,-87.65096333333332
Wolcott (Ravenswood) Ave & Montrose Ave,41.944478000000004,-87.67715191666667
Wolcott Ave & Fargo Ave,42.01686708333334,-87.67782700000001
Wolcott Ave & Polk St,41.867368166666665,-87.665204
Wood St & 35th St,41.82935558333333,-87.67109366666668
Wood St & Augusta Blvd,41.8859875,-87.67059341833334
Wood St & Chicago Ave,41.888668583333335,-87.66056791666666
Wood St & Hubbard St,41.88372341666667,-87.67884275
Wood St & Milwaukee Ave,41.89805825,-87.66412866666667
Wood St & Taylor St (Temp),41.849225025885765,-87.6586812584432
Woodlawn & 103rd - Olive Harvey Vaccination Site,41.71,-87.56
Woodlawn Ave & 55th St,41.79332158333334,-87.59488725
Woodlawn Ave & 75th St,41.7595515,-87.62294108333333
Woodlawn Ave & Lake Park Ave,41.80991991666666,-87.5931355
Yates Blvd & 75th St,41.758629416666665,-87.56641791666667
Yates Blvd & 93rd St,41.72611391666666,-87.56631300000001
